{"0":{"stationId":"1215","lat":60.2689544,"lon":24.8201851,"name":"Luhtim\u00e4ki"},"1":{"stationId":"1213","lat":60.2796056,"lon":24.815069,"name":"Petikontie"},"2":{"stationId":"1211","lat":60.2779776,"lon":24.821893,"name":"Martinkyl\u00e4ntie"},"3":{"stationId":"1219","lat":60.3012198,"lon":24.8565537,"name":"Vantaanpuisto"},"4":{"stationId":"1217","lat":60.2948249,"lon":24.8442235,"name":"Vehkala station"},"5":{"stationId":"1227","lat":60.3217496,"lon":24.8534876,"name":"Rubiinipuisto"},"6":{"stationId":"1105","lat":60.2847013,"lon":24.959207,"name":"Hagelstamintie"},"7":{"stationId":"1225","lat":60.3187548,"lon":24.8499308,"name":"Aurinkokivenpiha"},"8":{"stationId":"1103","lat":60.2811985,"lon":24.9660263,"name":"Hagelstaminpuisto"},"9":{"stationId":"1223","lat":60.3155649,"lon":24.8495962,"name":"Kivist\u00f6 station"},"10":{"stationId":"1101","lat":60.2762183,"lon":24.9703214,"name":"Tammistontie"},"11":{"stationId":"1221","lat":60.307614,"lon":24.8507536,"name":"Mestarintie"},"12":{"stationId":"1109","lat":60.2935188,"lon":24.9483596,"name":"Antaksentie"},"13":{"stationId":"1229","lat":60.3184709,"lon":24.8312068,"name":"Lincolninaukio"},"14":{"stationId":"1107","lat":60.2895658,"lon":24.9489907,"name":"Pakkalan puistotie"},"15":{"stationId":"1241","lat":60.2694491,"lon":24.8789874,"name":"Vetokuja"},"16":{"stationId":"1117","lat":60.2795197,"lon":24.9563511,"name":"Kartanonkoski sports park"},"17":{"stationId":"1237","lat":60.2963001,"lon":24.8914873,"name":"Tuupakankuja"},"18":{"stationId":"1115","lat":60.2947865,"lon":24.9223106,"name":"Ansatie"},"19":{"stationId":"1235","lat":60.2952683,"lon":24.9070643,"name":"Riistakuja"},"20":{"stationId":"1113","lat":60.3005094,"lon":24.9326708,"name":"Osumakuja"},"21":{"stationId":"1233","lat":60.30363,"lon":24.913318,"name":"Tahkotie"},"22":{"stationId":"1111","lat":60.2824962,"lon":24.9744748,"name":"Tammiston kauppatie"},"23":{"stationId":"1231","lat":60.3068,"lon":24.8985,"name":"Suokalliontie"},"24":{"stationId":"1119","lat":60.2896037,"lon":24.95928,"name":"V\u00e4in\u00f6 Tannerin tie"},"25":{"stationId":"1239","lat":60.2831918,"lon":24.8724943,"name":"Vantaanlaaksontie"},"26":{"stationId":"1131","lat":60.263718,"lon":24.8409657,"name":"Myyrm\u00e4ki ice hall"},"27":{"stationId":"1251","lat":60.2846073,"lon":24.9107005,"name":"Ollaksentie"},"28":{"stationId":"1007","lat":60.2934127,"lon":25.0364107,"name":"Tikkuraitti"},"29":{"stationId":"1249","lat":60.2579402,"lon":24.8671399,"name":"Aapraminkaari"},"30":{"stationId":"1127","lat":60.2609664,"lon":24.8548099,"name":"Myyrm\u00e4ki station"},"31":{"stationId":"1005","lat":60.2947747,"lon":25.044587,"name":"Tikkurila station"},"32":{"stationId":"1247","lat":60.2639194,"lon":24.8716415,"name":"Vuorimestarintori"},"33":{"stationId":"1125","lat":60.293995,"lon":24.9721365,"name":"R\u00e4lssitie"},"34":{"stationId":"1003","lat":60.2932159,"lon":25.0424261,"name":"M\u00e4nnist\u00f6npolku"},"35":{"stationId":"1245","lat":60.268743,"lon":24.8724826,"name":"Kaivokselantie"},"36":{"stationId":"1123","lat":60.2902401,"lon":24.9643631,"name":" Jumbo P1-level"},"37":{"stationId":"1001","lat":60.2930266,"lon":25.0515797,"name":"Rillitori"},"38":{"stationId":"1243","lat":60.2651189,"lon":24.8815986,"name":"Silvola"},"39":{"stationId":"1121","lat":60.2909266,"lon":24.9623982,"name":" Jumbo P3-level"},"40":{"stationId":"701","lat":60.206142,"lon":24.840699,"name":"Gallen-Kallelan tie"},"41":{"stationId":"703","lat":60.203852,"lon":24.8231,"name":"Elfvik"},"42":{"stationId":"705","lat":60.203892,"lon":24.80493,"name":"Laajalahden keskus"},"43":{"stationId":"1009","lat":60.2918634,"lon":25.0449516,"name":"Maalitori"},"44":{"stationId":"1129","lat":60.2627728,"lon":24.854638,"name":"Liesikuja"},"45":{"stationId":"707","lat":60.210735,"lon":24.824954,"name":"Majurinkulma"},"46":{"stationId":"709","lat":60.212508,"lon":24.819549,"name":"Yhdyskunnankuja"},"47":{"stationId":"1021","lat":60.2910976,"lon":25.0220122,"name":"Liljatie"},"48":{"stationId":"1263","lat":60.2956961,"lon":25.0595055,"name":"Urheilutie"},"49":{"stationId":"1141","lat":60.2758399,"lon":24.8455118,"name":"Martinlaakso swimming hall"},"50":{"stationId":"1261","lat":60.298773,"lon":25.0625998,"name":"Oljenkorsi"},"51":{"stationId":"1139","lat":60.2774844,"lon":24.8530321,"name":"Martinlaakso station"},"52":{"stationId":"1017","lat":60.2994855,"lon":25.0418704,"name":"Suopursunaukio"},"53":{"stationId":"1259","lat":60.3155676,"lon":25.0406925,"name":"Malminiitynpuisto"},"54":{"stationId":"1137","lat":60.2699185,"lon":24.8462619,"name":"Kuohukuja"},"55":{"stationId":"1015","lat":60.2940257,"lon":25.018708,"name":"Kurjenpolvenpuisto"},"56":{"stationId":"1257","lat":60.2903329,"lon":24.8663431,"name":"Kauppalaivurintie"},"57":{"stationId":"1135","lat":60.2701588,"lon":24.8531798,"name":"Louhela station"},"58":{"stationId":"1013","lat":60.2935647,"lon":25.0299499,"name":"Peltolantori"},"59":{"stationId":"1255","lat":60.2778249,"lon":24.8674029,"name":"Martinlaaksontie"},"60":{"stationId":"1133","lat":60.2655499,"lon":24.8521254,"name":"Myyrm\u00e4ki swimming hall"},"61":{"stationId":"1011","lat":60.2878288,"lon":25.0332859,"name":"Virnatie"},"62":{"stationId":"1253","lat":60.2817801,"lon":24.8483852,"name":"Laajavuorentie"},"63":{"stationId":"711","lat":60.2166947886,"lon":24.8264350647,"name":"Kirjurinkuja"},"64":{"stationId":"713","lat":60.216067,"lon":24.819396,"name":"Upseerinkatu"},"65":{"stationId":"715","lat":60.216222,"lon":24.821932,"name":"Komentajankatu"},"66":{"stationId":"1019","lat":60.2982375,"lon":25.050165,"name":"Jokiniemenkatu"},"67":{"stationId":"719","lat":60.213443,"lon":24.811572,"name":"S\u00e4teri"},"68":{"stationId":"1153","lat":60.2571537,"lon":24.8526744,"name":"Kilterinaukio"},"69":{"stationId":"2000","lat":60.318444,"lon":25.052469,"name":"Varia (Only for educational use)"},"70":{"stationId":"1031","lat":60.3132651,"lon":25.0351161,"name":"Malminiitynpolku"},"71":{"stationId":"1273","lat":60.2690918,"lon":24.9667526,"name":"Tammistonkatu"},"72":{"stationId":"1151","lat":60.2587643,"lon":24.8430601,"name":"Honkasuo"},"73":{"stationId":"1029","lat":60.3124746,"lon":25.0444984,"name":"Tarhurinaukio"},"74":{"stationId":"1149","lat":60.2624796,"lon":24.8479958,"name":"Meripihkatori"},"75":{"stationId":"1027","lat":60.3047281,"lon":25.0493034,"name":"Hiekkaharju station"},"76":{"stationId":"1269","lat":60.2886215,"lon":25.0419033,"name":"Heureka"},"77":{"stationId":"1147","lat":60.2852294,"lon":24.8491118,"name":"Vantaankoski station"},"78":{"stationId":"1025","lat":60.3030604,"lon":25.0462299,"name":"Talkootori"},"79":{"stationId":"1267","lat":60.2998958,"lon":24.9734811,"name":"Pyht\u00e4\u00e4nkorventie"},"80":{"stationId":"1145","lat":60.2790946,"lon":24.8611776,"name":"Kukinkuja"},"81":{"stationId":"1023","lat":60.2921602,"lon":25.0064559,"name":"Puutarhatie"},"82":{"stationId":"1265","lat":60.2958319,"lon":25.0333627,"name":"Hernetie"},"83":{"stationId":"1143","lat":60.279126,"lon":24.8400236,"name":"Kiskanpuisto"},"84":{"stationId":"721","lat":60.214193,"lon":24.805613,"name":"S\u00e4terinrinne"},"85":{"stationId":"601","lat":60.147974,"lon":24.754344,"name":"Nokkala"},"86":{"stationId":"723","lat":60.214666,"lon":24.800486,"name":"S\u00e4terinniitty"},"87":{"stationId":"603","lat":60.151041,"lon":24.754196,"name":"Matinlahdenranta"},"88":{"stationId":"725","lat":60.217261,"lon":24.806279,"name":"Rummunly\u00f6j\u00e4nkatu"},"89":{"stationId":"727","lat":60.217311,"lon":24.812419,"name":"Ratsutori"},"90":{"stationId":"607","lat":60.14754,"lon":24.741736,"name":"Nuottaniementie"},"91":{"stationId":"729","lat":60.218731,"lon":24.814828,"name":"Lepp\u00e4vaaranaukio"},"92":{"stationId":"609","lat":60.152343,"lon":24.741234,"name":"Sepetlahdentie"},"93":{"stationId":"1043","lat":60.3206875,"lon":25.0729534,"name":"Sauvatie"},"94":{"stationId":"1041","lat":60.3236278,"lon":25.0618091,"name":"Koivutori"},"95":{"stationId":"1039","lat":60.3201329,"lon":25.0633814,"name":"Kyd\u00f6naukio"},"96":{"stationId":"1037","lat":60.3056515,"lon":25.0232892,"name":"Maitikka-aukio"},"97":{"stationId":"1279","lat":60.2601674,"lon":24.8391748,"name":"Energia Arena"},"98":{"stationId":"1035","lat":60.3134573,"lon":25.0265759,"name":"Sananjalanpolku"},"99":{"stationId":"1277","lat":60.2996103,"lon":25.0284272,"name":"Tikkurila sports park"},"100":{"stationId":"731","lat":60.220254,"lon":24.813437,"name":"Lepp\u00e4vaarank\u00e4yt\u00e4v\u00e4"},"101":{"stationId":"1033","lat":60.3105341,"lon":25.0307302,"name":"Leinikkitie"},"102":{"stationId":"1275","lat":60.3009186,"lon":25.0548444,"name":"Hiekkaharju sports park"},"103":{"stationId":"611","lat":60.156258,"lon":24.752489,"name":"Matinkartanontie"},"104":{"stationId":"733","lat":60.221019,"lon":24.813109,"name":"L\u00e4kkitori"},"105":{"stationId":"613","lat":60.155689,"lon":24.744978,"name":"Matinkyl\u00e4ntie"},"106":{"stationId":"735","lat":60.221938,"lon":24.817939,"name":"Mestarinkatu"},"107":{"stationId":"615","lat":60.156755,"lon":24.737664,"name":"Tiistil\u00e4ntie"},"108":{"stationId":"737","lat":60.223769,"lon":24.812271,"name":"Muurarinkuja"},"109":{"stationId":"617","lat":60.153737,"lon":24.729112,"name":"Tiistinkallio"},"110":{"stationId":"739","lat":60.223827,"lon":24.826396,"name":"Postipuun koulu"},"111":{"stationId":"619","lat":60.160645,"lon":24.724835,"name":"Etuniementie"},"112":{"stationId":"1053","lat":60.3133866,"lon":24.9681387,"name":"Teletie"},"113":{"stationId":"1051","lat":60.3317268,"lon":25.0612598,"name":"Sairaalakatu"},"114":{"stationId":"1049","lat":60.3330046,"lon":25.0674364,"name":"Rekola station"},"115":{"stationId":"1047","lat":60.3232032,"lon":25.0375224,"name":"Leinel\u00e4 station"},"116":{"stationId":"741","lat":60.222154,"lon":24.804898,"name":"Gransinm\u00e4ki"},"117":{"stationId":"1045","lat":60.3232722,"lon":25.0598835,"name":"Koivukyl\u00e4 station"},"118":{"stationId":"621","lat":60.161138,"lon":24.756272,"name":"Hauenkalliontie"},"119":{"stationId":"501","lat":60.16582,"lon":24.840319,"name":"Hanasaari"},"120":{"stationId":"623","lat":60.161588,"lon":24.74663,"name":"Nelikkotie"},"121":{"stationId":"503","lat":60.171524,"lon":24.827467,"name":"Keilalahti"},"122":{"stationId":"745","lat":60.224943,"lon":24.800971,"name":"Lepp\u00e4vaaran urheilupuisto"},"123":{"stationId":"625","lat":60.160015,"lon":24.741294,"name":"Suomenlahdentie"},"124":{"stationId":"505","lat":60.168266,"lon":24.805758,"name":"Westendinasema"},"125":{"stationId":"747","lat":60.226379,"lon":24.804735,"name":"Lepp\u00e4vaaran uimahalli"},"126":{"stationId":"627","lat":60.162403,"lon":24.738416,"name":"Piispansilta"},"127":{"stationId":"507","lat":60.168143,"lon":24.796136,"name":"Golfpolku"},"128":{"stationId":"749","lat":60.228463,"lon":24.813871,"name":"Vallikatu"},"129":{"stationId":"629","lat":60.165603,"lon":24.732688,"name":"Piispanportti"},"130":{"stationId":"509","lat":60.171551,"lon":24.802938,"name":"Revontulentie"},"131":{"stationId":"1065","lat":60.2658549,"lon":24.9732547,"name":"Tapaninkyl\u00e4ntie"},"132":{"stationId":"1063","lat":60.2899626,"lon":24.9680763,"name":"Tasetie"},"133":{"stationId":"1061","lat":60.2959171,"lon":24.9627966,"name":"Robert Huberin tie"},"134":{"stationId":"1059","lat":60.3046698,"lon":24.9659589,"name":"Teknobulevardi"},"135":{"stationId":"751","lat":60.227827,"lon":24.819614,"name":"Vallipolku"},"136":{"stationId":"1057","lat":60.30255,"lon":24.9547822,"name":"Avia-aukio"},"137":{"stationId":"631","lat":60.162842,"lon":24.721367,"name":"Friisil\u00e4naukio"},"138":{"stationId":"511","lat":60.173424,"lon":24.810688,"name":"Sateentie"},"139":{"stationId":"753","lat":60.234401,"lon":24.813954,"name":"Linnuntie"},"140":{"stationId":"633","lat":60.168971,"lon":24.724908,"name":"Avaruuskatu"},"141":{"stationId":"754","lat":60.23841,"lon":24.821199,"name":"Lintumets\u00e4"},"142":{"stationId":"513","lat":60.173567,"lon":24.79139,"name":"Hakalehto"},"143":{"stationId":"755","lat":60.230453,"lon":24.824561,"name":"Kutsuntatie"},"144":{"stationId":"635","lat":60.172673,"lon":24.726025,"name":"Kuunkatu"},"145":{"stationId":"515","lat":60.175769,"lon":24.792559,"name":"Oravannahkatori"},"146":{"stationId":"757","lat":60.235089,"lon":24.831397,"name":"Painiitty"},"147":{"stationId":"637","lat":60.174524,"lon":24.729314,"name":"Ruomelantie"},"148":{"stationId":"517","lat":60.175358,"lon":24.802049,"name":"L\u00e4nsituuli"},"149":{"stationId":"518","lat":60.174144,"lon":24.806051,"name":"Tuulim\u00e4ki"},"150":{"stationId":"639","lat":60.174914,"lon":24.738122,"name":"It\u00e4portti"},"151":{"stationId":"519","lat":60.176168,"lon":24.805825,"name":"Tapionaukio"},"152":{"stationId":"761","lat":60.220467,"lon":24.83939,"name":"M\u00e4kkyl\u00e4n asema"},"153":{"stationId":"641","lat":60.167216,"lon":24.735969,"name":"Komeetankatu"},"154":{"stationId":"400","lat":60.18450834,"lon":24.8567966,"name":"Kuusisaari"},"155":{"stationId":"521","lat":60.177588,"lon":24.803942,"name":"Kulttuuriaukio"},"156":{"stationId":"763","lat":60.220551,"lon":24.833536,"name":"Kalkkipellonm\u00e4ki"},"157":{"stationId":"401","lat":60.16338631,"lon":24.85516427,"name":"Koivusaari (M)"},"158":{"stationId":"643","lat":60.171548,"lon":24.731472,"name":"Auringonkatu"},"159":{"stationId":"402","lat":60.15490426,"lon":24.91014211,"name":"Bermudankuja"},"160":{"stationId":"523","lat":60.17875,"lon":24.797984,"name":"Ahertajantie"},"161":{"stationId":"403","lat":60.18955618,"lon":24.97754808,"name":"Verkkosaari"},"162":{"stationId":"645","lat":60.168441,"lon":24.743532,"name":"Piispankallio"},"163":{"stationId":"404","lat":60.18293082,"lon":24.97607582,"name":"Sompasaari"},"164":{"stationId":"525","lat":60.178702,"lon":24.810974,"name":"M\u00e4ntyviita"},"165":{"stationId":"767","lat":60.223377,"lon":24.820635,"name":"Ruutikatu"},"166":{"stationId":"405","lat":60.16440749,"lon":25.06166787,"name":"Jollas"},"167":{"stationId":"647","lat":60.172814,"lon":24.745666,"name":"Lystim\u00e4ki"},"168":{"stationId":"527","lat":60.178655,"lon":24.817423,"name":"Otsolahti"},"169":{"stationId":"769","lat":60.204669,"lon":24.814268,"name":"Lumivaarantie"},"170":{"stationId":"649","lat":60.17471,"lon":24.752442,"name":"Lystim\u00e4ensilta"},"171":{"stationId":"529","lat":60.175233,"lon":24.82895,"name":"Keilaniemi (M)"},"172":{"stationId":"651","lat":60.184596,"lon":24.744131,"name":"Suurpellonaukio"},"173":{"stationId":"531","lat":60.178762,"lon":24.835132,"name":"Keilaranta"},"174":{"stationId":"532","lat":60.180027,"lon":24.831804,"name":"Betonimies"},"175":{"stationId":"653","lat":60.187086,"lon":24.742936,"name":"Lukutori"},"176":{"stationId":"533","lat":60.180806,"lon":24.824747,"name":"Tekniikantie"},"177":{"stationId":"537","lat":60.185096,"lon":24.81422,"name":"Innopoli"},"178":{"stationId":"538","lat":60.18363,"lon":24.817403,"name":"Hagalundinpuisto"},"179":{"stationId":"539","lat":60.184987,"lon":24.820099,"name":"Aalto-yliopisto (M), Tietotie"},"180":{"stationId":"541","lat":60.184312,"lon":24.826671,"name":"Aalto-yliopisto (M), Korkeakouluaukio"},"181":{"stationId":"301","lat":60.2027734,"lon":25.15934635,"name":"Aurinkotuulenkatu"},"182":{"stationId":"543","lat":60.18483,"lon":24.837133,"name":"Otaranta"},"183":{"stationId":"302","lat":60.20544673,"lon":25.15840938,"name":"Sumukuja"},"184":{"stationId":"303","lat":60.2046813,"lon":25.15154626,"name":"Leikosaarentie"},"185":{"stationId":"545","lat":60.188499,"lon":24.829985,"name":"S\u00e4hk\u00f6mies"},"186":{"stationId":"304","lat":60.20113608,"lon":25.15011353,"name":"Aurinkolahdenaukio"},"187":{"stationId":"305","lat":60.2021242,"lon":25.14304029,"name":"Kalkkihiekantie"},"188":{"stationId":"547","lat":60.188118,"lon":24.835033,"name":"J\u00e4mer\u00e4ntaival"},"189":{"stationId":"306","lat":60.2063719,"lon":25.14550436,"name":"Kauppakeskus Columbus"},"190":{"stationId":"307","lat":60.20661604,"lon":25.14104587,"name":"Ulappasilta"},"191":{"stationId":"549","lat":60.187346964,"lon":24.8107528444,"name":"Maarinranta"},"192":{"stationId":"308","lat":60.20797536,"lon":25.14385259,"name":"Mosaiikkitori"},"193":{"stationId":"309","lat":60.20440477,"lon":25.13599933,"name":"Kaivonkatsojanpuisto"},"194":{"stationId":"551","lat":60.189143,"lon":24.807083,"name":"Tiet\u00e4j\u00e4"},"195":{"stationId":"310","lat":60.20238693,"lon":25.12790982,"name":"Halkaisijantie"},"196":{"stationId":"311","lat":60.19956365,"lon":25.11990608,"name":"Ramsinniementie"},"197":{"stationId":"553","lat":60.186731,"lon":24.806152,"name":"Mets\u00e4nneidonpolku"},"198":{"stationId":"312","lat":60.20415423,"lon":25.11942241,"name":"Meri-Rastilan tori"},"199":{"stationId":"313","lat":60.20553547,"lon":25.12014086,"name":"Rastila (M)"},"200":{"stationId":"555","lat":60.184765,"lon":24.804022,"name":"Kalevalantie"},"201":{"stationId":"314","lat":60.20955807,"lon":25.1365036,"name":"Lokitie"},"202":{"stationId":"315","lat":60.21229761,"lon":25.15346457,"name":"Vuosaaren liikuntapuisto"},"203":{"stationId":"557","lat":60.18715,"lon":24.796959,"name":"Louhentori"},"204":{"stationId":"316","lat":60.21400149,"lon":25.14675006,"name":"Punakiventie"},"205":{"stationId":"317","lat":60.21877663,"lon":25.14678718,"name":"Haapasaarentie"},"206":{"stationId":"559","lat":60.18288,"lon":24.794014,"name":"Pohjankulma"},"207":{"stationId":"318","lat":60.2213209,"lon":25.14109536,"name":"Vuosaaren puistopolku"},"208":{"stationId":"319","lat":60.21964832,"lon":25.13382869,"name":"Purjetie"},"209":{"stationId":"561","lat":60.182976,"lon":24.78576,"name":"Koivu-Mankkaa"},"210":{"stationId":"320","lat":60.21398072,"lon":25.13423251,"name":"Koukkusaarentie"},"211":{"stationId":"200","lat":60.1503956286,"lon":24.9158626674,"name":"L\u00e4nsiterminaali"},"212":{"stationId":"321","lat":60.22088947,"lon":25.11091442,"name":"Vartioharjuntie"},"213":{"stationId":"563","lat":60.188706,"lon":24.780478,"name":"Mankkaanlaaksontie"},"214":{"stationId":"201","lat":60.1569319136,"lon":24.9122004402,"name":"L\u00e4nsisatamankuja"},"215":{"stationId":"322","lat":60.23128135,"lon":25.12759698,"name":"Rukatunturintie"},"216":{"stationId":"202","lat":60.181104,"lon":24.962129,"name":"Merihaka"},"217":{"stationId":"323","lat":60.23674091,"lon":25.11830002,"name":"Sallatunturintie"},"218":{"stationId":"565","lat":60.194599,"lon":24.769021,"name":"Mankkaanaukio"},"219":{"stationId":"203","lat":60.1992354258,"lon":24.9378263709,"name":"Opastinsilta"},"220":{"stationId":"324","lat":60.23296145,"lon":25.11106023,"name":"Sinkil\u00e4tie"},"221":{"stationId":"204","lat":60.205577,"lon":24.962152,"name":"A.I. Virtasen aukio"},"222":{"stationId":"325","lat":60.23853535,"lon":25.10987474,"name":"Mellunm\u00e4ki (M)"},"223":{"stationId":"205","lat":60.2066264377,"lon":24.9222198884,"name":"Ilmalan asema"},"224":{"stationId":"326","lat":60.23884425,"lon":25.10072322,"name":"Tuukkalantie"},"225":{"stationId":"206","lat":60.2076799596,"lon":24.8986678906,"name":"Ruskeasuon varikko"},"226":{"stationId":"327","lat":60.229825,"lon":25.09006415,"name":"Humikkalankuja"},"227":{"stationId":"207","lat":60.2110752963,"lon":24.8816602544,"name":"Vanha Viertotie"},"228":{"stationId":"328","lat":60.22352658,"lon":25.08297117,"name":"Lallukankuja"},"229":{"stationId":"208","lat":60.2159222354,"lon":24.8764647928,"name":"Valimotie"},"230":{"stationId":"329","lat":60.22829039,"lon":25.07164165,"name":"Kurkim\u00e4ki"},"231":{"stationId":"209","lat":60.2178996332,"lon":24.8710464686,"name":"Takomotie"},"232":{"stationId":"571","lat":60.177749,"lon":24.784654,"name":"Tapiolan urheilupuisto"},"233":{"stationId":"330","lat":60.23609535,"lon":25.08260956,"name":"Kontula (M)"},"234":{"stationId":"210","lat":60.218807358,"lon":24.8556679548,"name":"Pajam\u00e4ki"},"235":{"stationId":"331","lat":60.24091394,"lon":25.08552977,"name":"Lettopolku"},"236":{"stationId":"573","lat":60.17465,"lon":24.779428,"name":"Urheilupuisto (M)"},"237":{"stationId":"211","lat":60.2122752411,"lon":24.8995511364,"name":"Haagan tori"},"238":{"stationId":"332","lat":60.24384164,"lon":25.07622658,"name":"Kontulankaari"},"239":{"stationId":"212","lat":60.2166165375,"lon":24.8995436957,"name":"Tunnelitie"},"240":{"stationId":"333","lat":60.23990429,"lon":25.07464334,"name":"Kivikonkaari"},"241":{"stationId":"575","lat":60.176107,"lon":24.769667,"name":"Tontunm\u00e4entie"},"242":{"stationId":"213","lat":60.218088561,"lon":24.8950593437,"name":"Huopalahden asema"},"243":{"stationId":"334","lat":60.23913101,"lon":25.06685726,"name":"Varustuksentie"},"244":{"stationId":"214","lat":60.2222942788,"lon":24.8758709127,"name":"Valimon asema"},"245":{"stationId":"335","lat":60.23319439,"lon":25.06260837,"name":"Kurkim\u00e4entie"},"246":{"stationId":"577","lat":60.180848,"lon":24.760606,"name":"Olarinluoma"},"247":{"stationId":"215","lat":60.224166,"lon":24.858046,"name":"Pit\u00e4j\u00e4nm\u00e4en asema"},"248":{"stationId":"336","lat":60.23046218,"lon":25.05491523,"name":"Kivikonlaita"},"249":{"stationId":"216","lat":60.2267699609,"lon":24.8535409588,"name":"J\u00e4nnetie"},"250":{"stationId":"337","lat":60.23703582,"lon":25.05246958,"name":"Kivikon liikuntapuisto"},"251":{"stationId":"579","lat":60.171127,"lon":24.775913,"name":"Niittymaa"},"252":{"stationId":"217","lat":60.2271432338,"lon":24.8732273654,"name":"Marttila"},"253":{"stationId":"338","lat":60.25377123,"lon":25.07437759,"name":"Jakom\u00e4entie"},"254":{"stationId":"218","lat":60.2301514995,"lon":24.8831288455,"name":"Pohjois-Haagan asema"},"255":{"stationId":"339","lat":60.25943112,"lon":25.06489421,"name":"Alppikyl\u00e4"},"256":{"stationId":"219","lat":60.2328521376,"lon":24.8874345548,"name":"N\u00e4yttelij\u00e4ntie"},"257":{"stationId":"581","lat":60.170758,"lon":24.763184,"name":"Niittykumpu (M)"},"258":{"stationId":"340","lat":60.26101941,"lon":25.0759056,"name":"Jakom\u00e4ki"},"259":{"stationId":"220","lat":60.229488,"lon":24.895199,"name":"Ida Aalbergin tie"},"260":{"stationId":"341","lat":60.27019655,"lon":25.07271271,"name":"Heikinlaakso"},"261":{"stationId":"583","lat":60.166481,"lon":24.772708,"name":"Haukilahdensolmu"},"262":{"stationId":"100","lat":60.2096956258,"lon":24.8687394772,"name":"Telj\u00e4ntie"},"263":{"stationId":"221","lat":60.2253405232,"lon":24.8947926512,"name":"Thalianaukio"},"264":{"stationId":"342","lat":60.27008566,"lon":25.05753557,"name":"Puistolan VPK"},"265":{"stationId":"101","lat":60.2059946,"lon":24.8798291,"name":"Munkkivuoren ostoskeskus"},"266":{"stationId":"222","lat":60.2219755356,"lon":24.9032866467,"name":"Huovitie"},"267":{"stationId":"343","lat":60.27436993,"lon":25.0458546,"name":"Puistolantori"},"268":{"stationId":"585","lat":60.162396,"lon":24.775882,"name":"Haukilahdenaukio"},"269":{"stationId":"223","lat":60.226908,"lon":24.902865,"name":"H\u00e4meenlinnanv\u00e4yl\u00e4"},"270":{"stationId":"344","lat":60.2751896,"lon":25.03435012,"name":"Puistolan asema"},"271":{"stationId":"103","lat":60.208925,"lon":24.8895209,"name":"Vihdintie"},"272":{"stationId":"224","lat":60.2279423681,"lon":24.9265647643,"name":"Vesakkotie"},"273":{"stationId":"345","lat":60.271909,"lon":25.032552,"name":"Porvarintie"},"274":{"stationId":"587","lat":60.162477,"lon":24.767831,"name":"Hauenkallio"},"275":{"stationId":"104","lat":60.2056785,"lon":24.8916817,"name":"Kriikunakuja"},"276":{"stationId":"225","lat":60.2303828884,"lon":24.9325030021,"name":"Maunula"},"277":{"stationId":"346","lat":60.275855,"lon":25.024647,"name":"Maatullinkuja"},"278":{"stationId":"105","lat":60.2028392,"lon":24.8934761,"name":"Tilkantori"},"279":{"stationId":"226","lat":60.239108942,"lon":24.928595015,"name":"Lepolantie"},"280":{"stationId":"347","lat":60.28075608,"lon":25.01106298,"name":"Sateenkaarentie"},"281":{"stationId":"589","lat":60.158048,"lon":24.769864,"name":"Haukilahdenranta"},"282":{"stationId":"106","lat":60.2034735,"lon":24.8989297,"name":"Korppaanm\u00e4entie"},"283":{"stationId":"227","lat":60.2244037847,"lon":24.9525612436,"name":"Kyl\u00e4voudintie"},"284":{"stationId":"348","lat":60.27446709,"lon":24.98939662,"name":"Siltam\u00e4ki"},"285":{"stationId":"107","lat":60.2024393,"lon":24.9054609,"name":"Tenholantie"},"286":{"stationId":"228","lat":60.2307028706,"lon":24.9487651622,"name":"Kustaankartano"},"287":{"stationId":"349","lat":60.27196238,"lon":25.00397029,"name":"T\u00f6yrynummentie"},"288":{"stationId":"108","lat":60.20499,"lon":24.918419,"name":"Radiokatu"},"289":{"stationId":"229","lat":60.2332319517,"lon":24.9579341169,"name":"K\u00e4skynhaltijantie"},"290":{"stationId":"109","lat":60.202539,"lon":24.922458,"name":"Hertanm\u00e4enkatu"},"291":{"stationId":"591","lat":60.154941,"lon":24.773993,"name":"Mellstenintie"},"292":{"stationId":"350","lat":60.26714677,"lon":24.99299022,"name":"T\u00f6yrynummi"},"293":{"stationId":"230","lat":60.228549,"lon":24.960441,"name":"M\u00e4kitorpantie"},"294":{"stationId":"351","lat":60.2675063,"lon":25.01357237,"name":"Kotinummentie"},"295":{"stationId":"593","lat":60.1591405,"lon":24.782477,"name":"Toppelundintie"},"296":{"stationId":"110","lat":60.199151,"lon":24.924873,"name":"Maistraatintori"},"297":{"stationId":"231","lat":60.2337068563,"lon":24.9653950778,"name":"Siltavoudintie"},"298":{"stationId":"352","lat":60.26330395,"lon":25.02812397,"name":"Tapanilan asema"},"299":{"stationId":"111","lat":60.1975724,"lon":24.9267808,"name":"Esterinportti"},"300":{"stationId":"232","lat":60.2291001634,"lon":24.9667185624,"name":"Oulunkyl\u00e4n asema"},"301":{"stationId":"353","lat":60.2632143,"lon":25.0368876,"name":"Helluntairaitti"},"302":{"stationId":"595","lat":60.158194,"lon":24.791754,"name":"Westendintie"},"303":{"stationId":"112","lat":60.2014382,"lon":24.9332721,"name":"Rautatiel\u00e4isenkatu"},"304":{"stationId":"233","lat":60.2249303651,"lon":24.9728193751,"name":"Kirkkoherrantie"},"305":{"stationId":"354","lat":60.25909157,"lon":25.02909058,"name":"Saniaiskuja"},"306":{"stationId":"596","lat":60.1624471,"lon":24.7848628,"name":"Toppelundinportti"},"307":{"stationId":"113","lat":60.1982108668,"lon":24.932799079,"name":"Pasilan asema"},"308":{"stationId":"234","lat":60.2317840658,"lon":24.978138919,"name":"Otto Brandtin tie"},"309":{"stationId":"355","lat":60.26090681,"lon":25.01765775,"name":"Halmetie"},"310":{"stationId":"597","lat":60.1637,"lon":24.790132,"name":"Linnakepolku"},"311":{"stationId":"114","lat":60.196431,"lon":24.936256,"name":"Ratapihantie"},"312":{"stationId":"235","lat":60.217214808,"lon":24.9844200784,"name":"Katariina Saksilaisen katu"},"313":{"stationId":"356","lat":60.26088465,"lon":25.00331024,"name":"Laulurastaantie"},"314":{"stationId":"115","lat":60.1942095,"lon":24.941578,"name":"Venttiilikuja"},"315":{"stationId":"236","lat":60.224212141,"lon":24.9886001155,"name":"Hernepellontie"},"316":{"stationId":"357","lat":60.25969904,"lon":24.98975388,"name":"Vanha Tapanilantie"},"317":{"stationId":"116","lat":60.1911411,"lon":24.9401593,"name":"Linnanm\u00e4ki"},"318":{"stationId":"237","lat":60.2303019266,"lon":24.9985338199,"name":"Aulangontie"},"319":{"stationId":"358","lat":60.25667117,"lon":24.99860558,"name":"Syystie"},"320":{"stationId":"117","lat":60.1896706,"lon":24.9481024,"name":"Brahen puistikko"},"321":{"stationId":"238","lat":60.234578571,"lon":25.0103139051,"name":"Pihlajam\u00e4ki"},"322":{"stationId":"359","lat":60.25415862,"lon":25.00282802,"name":"Malmin sairaala"},"323":{"stationId":"118","lat":60.1895417,"lon":24.9521601,"name":"Fleminginkatu"},"324":{"stationId":"239","lat":60.2275206717,"lon":25.0100620611,"name":"Viikin tiedepuisto"},"325":{"stationId":"119","lat":60.190857,"lon":24.956262,"name":"Gebhardinaukio"},"326":{"stationId":"360","lat":60.25232553,"lon":25.00912157,"name":"Malmin asema"},"327":{"stationId":"240","lat":60.2274952958,"lon":25.0276189335,"name":"Viikin normaalikoulu"},"328":{"stationId":"361","lat":60.25756333,"lon":25.01310802,"name":"Huhtakuja"},"329":{"stationId":"120","lat":60.1896352,"lon":24.9635596,"name":"M\u00e4kel\u00e4nkatu"},"330":{"stationId":"241","lat":60.23405301,"lon":25.032857401,"name":"Agronominkatu"},"331":{"stationId":"362","lat":60.25339409,"lon":25.02149008,"name":"Teerisuontie"},"332":{"stationId":"121","lat":60.1864633,"lon":24.9678718,"name":"Vilhonvuorenkatu"},"333":{"stationId":"242","lat":60.2303371789,"lon":25.0435680699,"name":"Von Daehnin katu"},"334":{"stationId":"363","lat":60.24269283,"lon":25.0297267,"name":"V\u00e4\u00e4r\u00e4m\u00e4entie"},"335":{"stationId":"001","lat":60.1554447938,"lon":24.9502928897,"name":"Kaivopuisto"},"336":{"stationId":"122","lat":60.1837182,"lon":24.9621936,"name":"Lintulahdenkatu"},"337":{"stationId":"243","lat":60.1818617792,"lon":24.9920371102,"name":"Mustikkamaa"},"338":{"stationId":"364","lat":60.25030635,"lon":25.01323714,"name":"Ala-Malmin tori"},"339":{"stationId":"002","lat":60.1609590943,"lon":24.9563474718,"name":"Laivasillankatu"},"340":{"stationId":"123","lat":60.180021,"lon":24.954707,"name":"N\u00e4kinsilta"},"341":{"stationId":"244","lat":60.1858874981,"lon":25.0060192239,"name":"Relanderinaukio"},"342":{"stationId":"365","lat":60.24684531,"lon":25.00786044,"name":"Karviaistie"},"343":{"stationId":"003","lat":60.1581892,"lon":24.9449274,"name":"Kapteeninpuistikko"},"344":{"stationId":"124","lat":60.1826518206,"lon":24.9817926058,"name":"Isois\u00e4nsilta"},"345":{"stationId":"245","lat":60.1889500886,"lon":25.0065665309,"name":"Kulosaari (M)"},"346":{"stationId":"366","lat":60.24982656,"lon":25.00399305,"name":"Tilketori"},"347":{"stationId":"004","lat":60.1609859,"lon":24.9417758,"name":"Viiskulma"},"348":{"stationId":"125","lat":60.185922,"lon":24.979739,"name":"Arielinkatu"},"349":{"stationId":"246","lat":60.187998177,"lon":25.0153916485,"name":"Tupasaarentie"},"350":{"stationId":"367","lat":60.25177958,"lon":24.98706493,"name":"Karhusuontie"},"351":{"stationId":"005","lat":60.1579483,"lon":24.9362853,"name":"Sep\u00e4nkatu"},"352":{"stationId":"126","lat":60.18755649,"lon":24.9770684,"name":"Kalasatama (M)"},"353":{"stationId":"247","lat":60.1688685584,"lon":25.0208609553,"name":"Haakoninlahdenkatu"},"354":{"stationId":"368","lat":60.24773234,"lon":24.99172391,"name":"Pukinm\u00e4en liikuntapuisto"},"355":{"stationId":"006","lat":60.1622251,"lon":24.9297099,"name":"Hietalahdentori"},"356":{"stationId":"127","lat":60.1896994,"lon":24.9711926,"name":"Teurastamo"},"357":{"stationId":"248","lat":60.1719802715,"lon":25.0329688498,"name":"Gunillantie"},"358":{"stationId":"369","lat":60.24308645,"lon":24.99399523,"name":"Pukinm\u00e4en asema"},"359":{"stationId":"007","lat":60.1631032,"lon":24.94596,"name":"Designmuseo"},"360":{"stationId":"128","lat":60.1920576,"lon":24.9642238,"name":"P\u00e4ij\u00e4nteentie"},"361":{"stationId":"249","lat":60.1754903225,"lon":25.0449007059,"name":"Isosaarentie"},"362":{"stationId":"008","lat":60.1652883,"lon":24.9391499,"name":"Vanha kirkkopuisto"},"363":{"stationId":"129","lat":60.1942342,"lon":24.9579931,"name":"Pernajantie"},"364":{"stationId":"009","lat":60.1668900835,"lon":24.9442610721,"name":"Erottajan aukio"},"365":{"stationId":"370","lat":60.23931968,"lon":25.00136762,"name":"Rapakiventie"},"366":{"stationId":"250","lat":60.1677305033,"lon":25.0474962649,"name":"Reiherintie"},"367":{"stationId":"371","lat":60.24049485,"lon":24.99138726,"name":"Savela"},"368":{"stationId":"130","lat":60.193486,"lon":24.9487524,"name":"Teollisuuskatu"},"369":{"stationId":"251","lat":60.1800921361,"lon":25.0518837048,"name":"Laajasalon ostoskeskus"},"370":{"stationId":"372","lat":60.24521779,"lon":24.98332148,"name":"Jokipellontie"},"371":{"stationId":"010","lat":60.1650171805,"lon":24.9494728787,"name":"Kasarmitori"},"372":{"stationId":"131","lat":60.1962627,"lon":24.9476186,"name":"Elim\u00e4enkatu"},"373":{"stationId":"252","lat":60.1837438494,"lon":25.0530378591,"name":"Humalniementie"},"374":{"stationId":"373","lat":60.23556664,"lon":24.97154425,"name":"Mikkolantie"},"375":{"stationId":"011","lat":60.1674573,"lon":24.9510227,"name":"Unioninkatu"},"376":{"stationId":"132","lat":60.1958847986,"lon":24.9545338998,"name":"Hollolantie"},"377":{"stationId":"253","lat":60.1916468792,"lon":25.0611841709,"name":"Tammisalon aukio"},"378":{"stationId":"374","lat":60.24198627,"lon":24.95944938,"name":"Etupellonpuisto"},"379":{"stationId":"012","lat":60.168384,"lon":24.9583814,"name":"Kanavaranta"},"380":{"stationId":"133","lat":60.1974886,"lon":24.9614385,"name":"Paavalinpuisto"},"381":{"stationId":"254","lat":60.1872341228,"lon":25.0364122896,"name":"Agnetankuja"},"382":{"stationId":"375","lat":60.24885591,"lon":24.95814405,"name":"Piikintie"},"383":{"stationId":"013","lat":60.1678703,"lon":24.9755341,"name":"Merisotilaantori"},"384":{"stationId":"134","lat":60.1985314,"lon":24.9676708,"name":"Haukilahdenkatu"},"385":{"stationId":"255","lat":60.1879581031,"lon":25.0313853068,"name":"Laivalahden puistotie"},"386":{"stationId":"376","lat":60.25688071,"lon":24.94476827,"name":"Torpparinm\u00e4entie"},"387":{"stationId":"014","lat":60.168962,"lon":24.952144,"name":"Senaatintori"},"388":{"stationId":"135","lat":60.2010614,"lon":24.9440506,"name":"Velodrominrinne"},"389":{"stationId":"256","lat":60.1902101459,"lon":25.0260657101,"name":"Herttoniemenranta"},"390":{"stationId":"377","lat":60.25523561,"lon":24.91830089,"name":"Palohein\u00e4n maja"},"391":{"stationId":"015","lat":60.1711066459,"lon":24.9555581928,"name":"Ritarikatu"},"392":{"stationId":"136","lat":60.2032721,"lon":24.9513636,"name":"Sofianlehdonkatu"},"393":{"stationId":"257","lat":60.1910095814,"lon":25.0370700355,"name":"Margareetankuja"},"394":{"stationId":"378","lat":60.24699181,"lon":24.92385807,"name":"Palohein\u00e4ntie"},"395":{"stationId":"016","lat":60.1741822,"lon":24.9613747,"name":"Liisanpuistikko"},"396":{"stationId":"137","lat":60.2027912,"lon":24.9666128,"name":"Arabian kauppakeskus"},"397":{"stationId":"258","lat":60.1927078963,"lon":25.0425802749,"name":"Abraham Wetterin tie"},"398":{"stationId":"379","lat":60.24950971,"lon":24.94166821,"name":"Palohein\u00e4n kirjasto"},"399":{"stationId":"017","lat":60.1731029005,"lon":24.9495192737,"name":"Varsapuistikko"},"400":{"stationId":"138","lat":60.2064915651,"lon":24.9770790118,"name":"Arabiankatu"},"401":{"stationId":"259","lat":60.1931376254,"lon":25.0311119426,"name":"Petter Wetterin tie"},"402":{"stationId":"018","lat":60.170654,"lon":24.949154,"name":"Porthania"},"403":{"stationId":"139","lat":60.209796,"lon":24.979682,"name":"Muotoilijankatu"},"404":{"stationId":"019","lat":60.1708236,"lon":24.9425268,"name":"Rautatientori \/ it\u00e4"},"405":{"stationId":"380","lat":60.2327348,"lon":24.90975085,"name":"Pirkkolan liikuntapuisto"},"406":{"stationId":"260","lat":60.1946146243,"lon":25.0288720827,"name":"Herttoniemi (M)"},"407":{"stationId":"381","lat":60.24440858,"lon":24.89899983,"name":"Maununneva"},"408":{"stationId":"140","lat":60.2137007,"lon":24.9797283,"name":"Verkatehtaanpuisto"},"409":{"stationId":"261","lat":60.1991271376,"lon":25.0425924658,"name":"Asentajanpuisto"},"410":{"stationId":"382","lat":60.25296715,"lon":24.8970699,"name":"Hakuninmaa"},"411":{"stationId":"020","lat":60.1731989417,"lon":24.9433010007,"name":"Kaisaniemenpuisto"},"412":{"stationId":"141","lat":60.2078582,"lon":24.9676383,"name":"Intiankatu"},"413":{"stationId":"262","lat":60.2059624496,"lon":25.0451611567,"name":"Siilitie (M)"},"414":{"stationId":"383","lat":60.25925606,"lon":24.8927574,"name":"Kuninkaantammi"},"415":{"stationId":"021","lat":60.17219068,"lon":24.93930791,"name":"T\u00f6\u00f6l\u00f6nlahdenkatu"},"416":{"stationId":"142","lat":60.207843,"lon":24.946651,"name":"Koskelantie"},"417":{"stationId":"263","lat":60.1984429512,"lon":25.0321121279,"name":"Herttoniemen kirkko"},"418":{"stationId":"384","lat":60.25280663,"lon":24.88410754,"name":"Kalannintie"},"419":{"stationId":"022","lat":60.1706061,"lon":24.9397601,"name":"Rautatientori \/ l\u00e4nsi"},"420":{"stationId":"143","lat":60.1570856005,"lon":24.8693060528,"name":"Kuikkarinne"},"421":{"stationId":"264","lat":60.2045616636,"lon":25.0335974122,"name":"Er\u00e4nk\u00e4vij\u00e4ntori"},"422":{"stationId":"385","lat":60.2432353,"lon":24.88610263,"name":"Pajupillintie"},"423":{"stationId":"023","lat":60.171273,"lon":24.937106,"name":"Kiasma"},"424":{"stationId":"144","lat":60.2139043,"lon":24.9588108,"name":"K\u00e4pyl\u00e4ntie"},"425":{"stationId":"265","lat":60.2094767053,"lon":25.0374822157,"name":"Siilitie 9"},"426":{"stationId":"386","lat":60.24374634,"lon":24.8788005,"name":"Kannelm\u00e4en liikuntapuisto"},"427":{"stationId":"024","lat":60.1690724,"lon":24.9394195,"name":"Mannerheimintie"},"428":{"stationId":"145","lat":60.213421,"lon":24.9437964,"name":"Pohjolankatu"},"429":{"stationId":"266","lat":60.2150633717,"lon":25.043793779,"name":"Siilitie 13"},"430":{"stationId":"387","lat":60.23633055,"lon":24.88947967,"name":"Kauppakeskus Kaari"},"431":{"stationId":"025","lat":60.1700420359,"lon":24.93460698,"name":"Narinkka"},"432":{"stationId":"146","lat":60.2172043,"lon":24.9544112,"name":"Pohjolanaukio"},"433":{"stationId":"267","lat":60.209287,"lon":25.055528,"name":"Roihupelto"},"434":{"stationId":"388","lat":60.23780652,"lon":24.88145171,"name":"Kaustisentie"},"435":{"stationId":"026","lat":60.1686095,"lon":24.9305373,"name":"Kamppi (M)"},"436":{"stationId":"147","lat":60.2208057098,"lon":24.947929025,"name":"K\u00e4pyl\u00e4n asema"},"437":{"stationId":"268","lat":60.1955397168,"lon":25.0535809441,"name":"Porolahden koulu"},"438":{"stationId":"389","lat":60.23934599,"lon":24.87664725,"name":"Kannelm\u00e4en asema"},"439":{"stationId":"027","lat":60.1673332,"lon":24.9357851,"name":"Eerikinkatu"},"440":{"stationId":"148","lat":60.2184427,"lon":24.9664619,"name":"Juhana Herttuan tie"},"441":{"stationId":"269","lat":60.1987054996,"lon":25.0585493312,"name":"Peukaloisentie"},"442":{"stationId":"028","lat":60.1658121,"lon":24.927021,"name":"Lastenlehto"},"443":{"stationId":"149","lat":60.183164,"lon":24.9441949,"name":"Toinen linja"},"444":{"stationId":"029","lat":60.164088,"lon":24.9225658,"name":"Baana"},"445":{"stationId":"390","lat":60.23915611,"lon":24.86911,"name":"Trumpettikuja"},"446":{"stationId":"270","lat":60.2020729867,"lon":25.0600465961,"name":"Tulisuontie"},"447":{"stationId":"391","lat":60.24590853,"lon":24.86771102,"name":"Tollinpolku"},"448":{"stationId":"150","lat":60.174646,"lon":24.935186,"name":"T\u00f6\u00f6l\u00f6nlahden puisto"},"449":{"stationId":"271","lat":60.2063402327,"lon":25.0600923335,"name":"Prinsessantie"},"450":{"stationId":"392","lat":60.24323344,"lon":24.85729796,"name":"Viljelij\u00e4ntie"},"451":{"stationId":"030","lat":60.1635309,"lon":24.9145165,"name":"It\u00e4merentori"},"452":{"stationId":"272","lat":60.2043248917,"lon":25.0760693599,"name":"Marjaniementie"},"453":{"stationId":"393","lat":60.24781786,"lon":24.86311564,"name":"Malminkartanon asema"},"454":{"stationId":"031","lat":60.1680998,"lon":24.9220763,"name":"Marian sairaala"},"455":{"stationId":"394","lat":60.25156469,"lon":24.85743226,"name":"Tuohipolku"},"456":{"stationId":"032","lat":60.1713589074,"lon":24.9318975121,"name":"El\u00e4inmuseo"},"457":{"stationId":"274","lat":60.2089975994,"lon":25.0867821055,"name":"Voikukantie"},"458":{"stationId":"395","lat":60.25555748,"lon":24.84658097,"name":"Honkasuo"},"459":{"stationId":"033","lat":60.171366,"lon":24.923908,"name":"Kauppakorkeakoulu"},"460":{"stationId":"275","lat":60.2096006655,"lon":25.0759680152,"name":"It\u00e4keskus (M)"},"461":{"stationId":"396","lat":60.25040779,"lon":24.84864869,"name":"Malminkartanonhuippu"},"462":{"stationId":"034","lat":60.1739641,"lon":24.9329875,"name":"Kansallismuseo"},"463":{"stationId":"276","lat":60.2124941656,"lon":25.0823220944,"name":"Puotinharju"},"464":{"stationId":"397","lat":60.24474377,"lon":24.84758603,"name":"Hankasuontie"},"465":{"stationId":"035","lat":60.174063715,"lon":24.9282275805,"name":"Cygnaeuksenkatu"},"466":{"stationId":"277","lat":60.2036095566,"lon":25.0862961567,"name":"Marjaniemi"},"467":{"stationId":"398","lat":60.2388821,"lon":24.85129051,"name":"Ajomiehentie"},"468":{"stationId":"036","lat":60.1760798,"lon":24.9223942,"name":"Apollonkatu"},"469":{"stationId":"278","lat":60.2090596337,"lon":25.1004260602,"name":"Puotilantie"},"470":{"stationId":"399","lat":60.23245104,"lon":24.84616505,"name":"V\u00e4h\u00e4ntuvantie"},"471":{"stationId":"037","lat":60.1775598,"lon":24.9283272,"name":"T\u00f6\u00f6l\u00f6nkatu"},"472":{"stationId":"279","lat":60.2125099078,"lon":25.106198743,"name":"Puotinkyl\u00e4n kartano"},"473":{"stationId":"038","lat":60.1791231,"lon":24.9249114,"name":"T\u00f6\u00f6l\u00f6ntori"},"474":{"stationId":"039","lat":60.1825529,"lon":24.926687,"name":"Ooppera"},"475":{"stationId":"280","lat":60.2127005714,"lon":25.0955595128,"name":"Puotilan ostoskeskus"},"476":{"stationId":"281","lat":60.2148207133,"lon":25.0911245277,"name":"Puotila (M)"},"477":{"stationId":"040","lat":60.178106316,"lon":24.9521812489,"name":"Hakaniemi (M)"},"478":{"stationId":"161","lat":60.1672308305,"lon":24.9474658195,"name":"Etel\u00e4esplanadi"},"479":{"stationId":"282","lat":60.2186014784,"lon":25.1023248499,"name":"Karhulantie"},"480":{"stationId":"041","lat":60.180863,"lon":24.9494,"name":"Ympyr\u00e4talo"},"481":{"stationId":"162","lat":60.1695734321,"lon":24.9265904978,"name":"Lepp\u00e4suonaukio"},"482":{"stationId":"283","lat":60.219850966,"lon":25.0774702441,"name":"Alakiventie"},"483":{"stationId":"042","lat":60.1831601181,"lon":24.9551952849,"name":"Haapaniemenkatu"},"484":{"stationId":"163","lat":60.1818132201,"lon":24.8504396679,"name":"Lehtisaarentie"},"485":{"stationId":"284","lat":60.2240864678,"lon":25.0753957922,"name":"Myllypuro (M)"},"486":{"stationId":"043","lat":60.1842833,"lon":24.9526763,"name":"Karhupuisto"},"487":{"stationId":"285","lat":60.2235651967,"lon":25.0654218382,"name":"Orpaanporras"},"488":{"stationId":"044","lat":60.187701,"lon":24.960419,"name":"S\u00f6rn\u00e4inen (M)"},"489":{"stationId":"286","lat":60.2182519698,"lon":25.0591038762,"name":"Mamsellimyllynkatu"},"490":{"stationId":"045","lat":60.1868618,"lon":24.9509168,"name":"Brahen kentt\u00e4"},"491":{"stationId":"046","lat":60.186979,"lon":24.943358,"name":"Diakoniapuisto"},"492":{"stationId":"047","lat":60.165343,"lon":24.953535,"name":"Vanha Kauppahalli"},"493":{"stationId":"048","lat":60.1647545,"lon":24.9674861,"name":"Mastokatu"},"494":{"stationId":"049","lat":60.1634589429,"lon":24.9417708421,"name":"Annankatu"},"495":{"stationId":"290","lat":60.195225,"lon":24.962832,"name":"Vallilan\u00a0varikko"},"496":{"stationId":"291","lat":60.211446,"lon":25.065816,"name":"It\u00e4keskus Metrovarikko"},"497":{"stationId":"050","lat":60.1498127,"lon":24.8861094,"name":"Melkonkuja"},"498":{"stationId":"292","lat":60.212701,"lon":24.969956,"name":"Koskelan varikko"},"499":{"stationId":"051","lat":60.15066,"lon":24.8812502,"name":"It\u00e4lahdenkatu"},"500":{"stationId":"293","lat":60.1799061408,"lon":24.9825269338,"name":"Korkeasaari"},"501":{"stationId":"052","lat":60.1540763,"lon":24.8793159,"name":"Heikkil\u00e4naukio"},"502":{"stationId":"294","lat":60.220301,"lon":24.933737,"name":"Postipuisto"},"503":{"stationId":"053","lat":60.156817,"lon":24.8850653,"name":"Heikkil\u00e4ntie"},"504":{"stationId":"054","lat":60.159644,"lon":24.877286,"name":"Gyldenintie"},"505":{"stationId":"055","lat":60.157875,"lon":24.86202,"name":"Puistokaari"},"506":{"stationId":"056","lat":60.1654485,"lon":24.8601992,"name":"Luoteisv\u00e4yl\u00e4"},"507":{"stationId":"057","lat":60.1603306,"lon":24.8815441,"name":"Lauttasaaren ostoskeskus"},"508":{"stationId":"058","lat":60.1611858261,"lon":24.8899154001,"name":"Lauttasaarensilta"},"509":{"stationId":"059","lat":60.1647813804,"lon":24.9009608035,"name":"Salmisaarenranta"},"510":{"stationId":"060","lat":60.161238,"lon":24.902912,"name":"Kaapelitehdas"},"511":{"stationId":"061","lat":60.1589276,"lon":24.909692,"name":"L\u00e4nsisatamankatu"},"512":{"stationId":"062","lat":60.159296,"lon":24.916241,"name":"V\u00e4limerenkatu"},"513":{"stationId":"063","lat":60.1619311,"lon":24.9214896,"name":"J\u00e4tk\u00e4saarenlaituri"},"514":{"stationId":"064","lat":60.156838,"lon":24.920661,"name":"Tyynenmerenkatu"},"515":{"stationId":"065","lat":60.1535296818,"lon":24.9312540671,"name":"Hernesaarenranta"},"516":{"stationId":"066","lat":60.155309,"lon":24.9591271,"name":"Ehrenstr\u00f6mintie"},"517":{"stationId":"067","lat":60.1600875931,"lon":24.9340656851,"name":"Per\u00e4miehenkatu"},"518":{"stationId":"068","lat":60.1618359,"lon":24.9368179,"name":"Albertinkatu"},"519":{"stationId":"069","lat":60.16568,"lon":24.931422,"name":"Kalevankatu"},"520":{"stationId":"070","lat":60.1731473,"lon":24.9224112,"name":"Sammonpuistikko"},"521":{"stationId":"071","lat":60.1733331558,"lon":24.9076704247,"name":"Hietaniemenkatu"},"522":{"stationId":"072","lat":60.1755878741,"lon":24.9156627517,"name":"Etel\u00e4inen Hesperiankatu"},"523":{"stationId":"073","lat":60.1792967,"lon":24.9132504,"name":"Kes\u00e4katu"},"524":{"stationId":"074","lat":60.183137,"lon":24.911127,"name":"Rajasaarentie"},"525":{"stationId":"075","lat":60.1838677,"lon":24.9198371,"name":"Korjaamo"},"526":{"stationId":"076","lat":60.1845055,"lon":24.9249741,"name":"Olympiastadion"},"527":{"stationId":"077","lat":60.1852363297,"lon":24.9172498411,"name":"Nordenski\u00f6ldinaukio"},"528":{"stationId":"078","lat":60.1878352,"lon":24.9180102,"name":"Messeniuksenkatu"},"529":{"stationId":"079","lat":60.1892172,"lon":24.9292286,"name":"Uimastadion"},"530":{"stationId":"080","lat":60.1894025,"lon":24.9205978,"name":"J\u00e4\u00e4halli"},"531":{"stationId":"081","lat":60.1883091,"lon":24.9123717,"name":"Stenb\u00e4ckinkatu"},"532":{"stationId":"082","lat":60.1909569323,"lon":24.9128271354,"name":"T\u00f6\u00f6l\u00f6ntulli"},"533":{"stationId":"083","lat":60.1902195,"lon":24.9083351,"name":"Meilahden sairaala"},"534":{"stationId":"084","lat":60.191524,"lon":24.901008,"name":"Paciuksenkatu"},"535":{"stationId":"085","lat":60.1934696,"lon":24.905889,"name":"Jalavatie"},"536":{"stationId":"086","lat":60.1952452,"lon":24.9018997,"name":"Kuusitie"},"537":{"stationId":"087","lat":60.1882752174,"lon":24.9559759316,"name":"Kustaankatu"},"538":{"stationId":"088","lat":60.1989402,"lon":24.9012997,"name":"Kiskontie"},"539":{"stationId":"089","lat":60.1975329,"lon":24.899261,"name":"Tilkanvierto"},"540":{"stationId":"090","lat":60.1944475,"lon":24.8911179,"name":"Paciuksenkaari"},"541":{"stationId":"091","lat":60.188399,"lon":24.8847362,"name":"Seurasaari"},"542":{"stationId":"092","lat":60.1926305828,"lon":24.8792214424,"name":"Saunalahdentie"},"543":{"stationId":"093","lat":60.1948358,"lon":24.8713963,"name":"Torpanranta"},"544":{"stationId":"094","lat":60.1979309076,"lon":24.8762217165,"name":"Laajalahden aukio"},"545":{"stationId":"095","lat":60.1967196,"lon":24.8840917,"name":"Munkkiniemen aukio"},"546":{"stationId":"096","lat":60.1996653,"lon":24.8836209,"name":"Huopalahdentie"},"547":{"stationId":"098","lat":60.2038803,"lon":24.8708833,"name":"Ulvilantie"},"548":{"stationId":"099","lat":60.2071193,"lon":24.8559544,"name":"Muusantori"},"549":{"stationId":"1304","lat":60.2963209,"lon":25.0397835,"name":"Vantaa adult education center"},"550":{"stationId":"1303","lat":60.2983565,"lon":25.0176366,"name":"Lummetie"},"551":{"stationId":"1302","lat":60.3075037,"lon":25.0359393,"name":"Hiekkaharju school"},"552":{"stationId":"1301","lat":60.295229,"lon":25.04899,"name":"Eric Von Rettigs park"},"553":{"stationId":"1300","lat":60.2947203,"lon":25.0418595,"name":"Kirjastopuisto"},"554":{"stationId":"1309","lat":60.2892091,"lon":25.030103,"name":"Tikkurilantie"},"555":{"stationId":"1308","lat":60.27419,"lon":24.857225,"name":"Jokiuomanpuisto"},"556":{"stationId":"1307","lat":60.3142376,"lon":25.1125377,"name":"Kuusij\u00e4rvi"},"557":{"stationId":"1306","lat":60.324849,"lon":25.041509,"name":"Mets\u00e4nhenki"},"558":{"stationId":"1305","lat":60.2910471,"lon":25.0419878,"name":"Ratatie"},"559":{"stationId":"1315","lat":60.3047885,"lon":25.0415229,"name":"Hiekkatie"},"560":{"stationId":"1314","lat":60.3061552,"lon":25.0286342,"name":"Raatetie"},"561":{"stationId":"1313","lat":60.3170412,"lon":25.0265325,"name":"M\u00f6sk\u00e4rinm\u00e4ki"},"562":{"stationId":"1312","lat":60.2893069,"lon":25.0359043,"name":"Kielotie"},"563":{"stationId":"1311","lat":60.3018565,"lon":25.0230221,"name":"L\u00e4ntinen Valkoisenl\u00e4hteentie"},"564":{"stationId":"1310","lat":60.2915504,"lon":25.0175648,"name":"Osmank\u00e4\u00e4mintie"},"565":{"stationId":"1319","lat":60.3156798,"lon":25.099649,"name":"Peijaksentie"},"566":{"stationId":"1318","lat":60.2936029,"lon":25.0253842,"name":"Koiruohonpuisto"},"567":{"stationId":"1317","lat":60.3222025,"lon":25.0417414,"name":"Leinel\u00e4n Puistotie"},"568":{"stationId":"1316","lat":60.3014625,"lon":25.0410101,"name":"Kukkakimpunpuisto"},"569":{"stationId":"1205","lat":60.2565987,"lon":24.805655,"name":"P\u00e4hkin\u00e4rinne library"},"570":{"stationId":"1203","lat":60.2546414,"lon":24.8145545,"name":"Koivuvaarankuja"},"571":{"stationId":"1201","lat":60.259273,"lon":24.8300791,"name":"Nuijatie"},"572":{"stationId":"900","lat":60.180118,"lon":24.771826,"name":"Orionintie"},"573":{"stationId":"901","lat":60.163412,"lon":24.742219,"name":"Outotec"},"574":{"stationId":"1209","lat":60.2710845,"lon":24.8038507,"name":"Ainontie"},"575":{"stationId":"902","lat":60.209017,"lon":24.835356,"name":"Derby Business Park"},"576":{"stationId":"1207","lat":60.2618736,"lon":24.8065774,"name":"Lammasrinne"}}